Site,latitude,longitude
hells_gate,46.3502278,-117.0489787
NJ_landing,46.4758469,-117.2353727
NJ_canyon,46.51227314,-117.2323655
alpowa_creek,46.41495185,-117.2115016
wawawai_park,46.63773353,-117.3748874
blyton_landing,46.55870306,-117.270382
rose_creek,46.82571505,-117.2074097
sunshine_road,46.73059324,-117.0863478
grimes_road,46.72863438,-117.1442946
boyer_park,46.67256238,-117.4438124
evans_pond,46.418407,-117.114665
